City ID,city,Max Temp,Lat,Lng,Humidity,Cloudiness,Wind Speed,country,Date
0,half moon bay,56.93,37.4636,-122.4286,84,75,13.8,US,1655119843
1,ribeira grande,66.6,38.5167,-28.7,82,40,16.11,PT,1655119764
2,husavik,53.55,66.0449,-17.3389,70,100,5.73,IS,1655120258
3,nikolskoye,68.88,59.7035,30.7861,48,48,7.02,RU,1655119773
4,aswan,106.9,24.0934,32.907,13,0,10.36,EG,1655120260
5,ranong,85.93,9.9658,98.6348,82,99,5.08,TH,1655120260
6,yagodnoye,46.65,62.55,149.6667,78,43,4.41,RU,1655120261
7,ponta do sol,74.71,32.6667,-17.1,70,53,4.81,PT,1655119762
8,iqaluit,33.53,63.7506,-68.5145,100,100,6.91,CA,1655119769
9,clyde river,34.03,70.4692,-68.5914,75,100,2.3,CA,1655119885
10,butaritari,81.84,3.0707,172.7902,70,48,10.96,KI,1655120264
11,saskylakh,69.57,71.9167,114.0833,25,1,7.16,RU,1655119987
12,hilo,77.29,19.7297,-155.09,85,0,8.05,US,1655119772
13,deputatskiy,60.15,69.3,139.9,39,3,10.69,RU,1655120266
14,cherskiy,60.82,68.75,161.3,33,76,6.93,RU,1655120267
15,college,49.59,64.8569,-147.8028,80,100,5.75,US,1655120073
16,sinnamary,79.65,5.3833,-52.95,80,19,5.28,GF,1655120269
17,nyurba,57.97,63.2842,118.3319,74,76,1.77,RU,1655120270
18,bonfim,74.3,3.0833,-59.95,90,98,2.86,BR,1655120270
19,taldan,59.4,53.6667,124.8,94,98,1.32,RU,1655120271
20,chokurdakh,64.29,70.6333,147.9167,30,3,11.39,RU,1655120272
21,manadhoo,83.21,5.7667,73.3833,76,79,10.85,MV,1655120273
22,severo-kurilsk,42.53,50.6789,156.125,92,72,11.12,RU,1655120273
23,mirnyy,63.73,62.5353,113.9611,46,83,5.77,RU,1655120274
24,barrow,28.42,71.2906,-156.7887,93,100,10.36,US,1655119770
25,basco,84.97,20.4487,121.9702,75,100,8.59,PH,1655120276
26,paamiut,35.62,61.994,-49.6678,78,55,29.46,GL,1655120277
27,khatanga,71.64,71.9667,102.5,30,100,4.27,RU,1655120277
28,ostrovnoy,54.72,68.0531,39.5131,82,100,8.84,RU,1655119753
29,peniche,82.45,39.3558,-9.3811,73,5,7.45,PT,1655120279
30,puerto el triunfo,75.76,13.2833,-88.55,90,100,4.07,SV,1655120280
31,ormara,83.88,25.2088,64.6357,79,0,13.73,PK,1655120280
32,fortuna,54.66,40.5982,-124.1573,90,100,10.36,US,1655119888
33,pierre,66.27,44.3683,-100.351,91,40,11.5,US,1655120171
34,lebrija,99.09,36.9208,-6.0753,15,20,3.44,ES,1655120282
35,farsund,54.95,58.0948,6.8047,100,72,21.92,NO,1655120283
36,dikson,30.67,73.5069,80.5464,88,100,14.61,RU,1655119755
37,mogadishu,87.67,2.0371,45.3438,66,40,19.57,SO,1655120285
38,roald,55.9,62.5833,6.1333,100,75,17.27,NO,1655120286
39,abonnema,85.64,4.7084,6.7931,65,100,8.84,NG,1655120287
40,high point,75.2,35.9557,-80.0053,89,20,4.61,US,1655120222
41,port hardy,48.2,50.6996,-127.4199,93,40,3.44,CA,1655120288
42,kapaa,74.12,22.0752,-159.319,93,100,13.8,US,1655120174
43,petropavlovsk-kamchatskiy,48.79,53.0452,158.6483,71,0,4.47,RU,1655120289
44,pacific grove,54.41,36.6177,-121.9166,87,75,17.0,US,1655119837
45,foshan,82.94,23.0268,113.1315,85,100,6.55,CN,1655120268
46,yellowknife,50.56,62.456,-114.3525,100,20,5.75,CA,1655119835
47,paluan,83.03,13.416,120.4623,74,100,2.33,PH,1655120293
48,upernavik,30.2,72.7868,-56.1549,88,100,6.62,GL,1655119971
49,bethel,68.36,41.3712,-73.414,97,93,1.99,US,1655119976
50,puerto ayora,70.56,-0.7393,-90.3518,94,93,1.01,EC,1655120295
51,pangnirtung,32.85,66.1451,-65.7125,86,87,1.74,CA,1655120296
52,georgetown,87.73,5.4112,100.3354,74,20,8.05,MY,1655119804
53,batagay-alyta,58.17,67.8006,130.4114,57,100,4.38,RU,1655120297
54,asyut,100.58,27.181,31.1837,19,0,13.87,EG,1655120298
55,saint george,82.99,37.1041,-113.5841,17,0,18.41,US,1655120298
56,fort morgan,71.02,40.2503,-103.8,48,0,8.05,US,1655120299
57,illela,101.8,13.7292,5.2975,26,22,13.33,NG,1655120300
58,zapolyarnyy,56.48,69.4154,30.8136,51,80,10.09,RU,1655120301
59,linfen,84.49,36.0889,111.5189,22,9,15.48,CN,1655120302
60,narsaq,41.22,60.9167,-46.05,67,49,2.77,GL,1655119969
61,qaanaaq,27.43,77.484,-69.3632,66,0,3.47,GL,1655120303
62,san patricio,82.29,28.017,-97.5169,87,3,11.34,US,1655120304
63,findochty,60.94,57.6974,-2.901,66,97,5.99,GB,1655120305
64,atasu,84.69,48.6814,71.6433,22,89,16.98,KZ,1655120305
65,lompoc,59.59,34.6391,-120.4579,90,100,18.41,US,1655119950
66,thompson,44.76,55.7435,-97.8558,100,40,2.3,CA,1655119892
67,zelenoborsk,56.3,61.4669,64.0333,60,100,11.68,RU,1655120308
68,provideniya,36.9,64.3833,-173.3,87,100,3.49,RU,1655120309
69,soligalich,71.67,59.0778,42.2864,36,82,7.31,RU,1655120310
70,egvekinot,34.5,66.3167,-179.1667,67,67,6.67,RU,1655120311
71,pafos,82.18,34.7667,32.4167,57,40,10.36,CY,1655120304
72,puerto baquerizo moreno,71.19,-0.9,-89.6,78,96,8.9,EC,1655120312
73,kodiak,51.31,57.79,-152.4072,76,75,9.22,US,1655120314
74,tiksi,43.3,71.6872,128.8694,67,71,6.93,RU,1655120314
75,iralaya,79.23,15.0,-83.2333,85,95,14.09,HN,1655120316
76,moura,89.71,38.1401,-7.4486,19,60,12.08,PT,1655120316
77,tasiilaq,34.75,65.6145,-37.6368,99,100,4.65,GL,1655119755
78,baruun-urt,59.11,46.6806,113.2792,71,62,10.27,MN,1655120318
79,longyearbyen,40.84,78.2186,15.6401,70,75,4.61,SJ,1655120319
80,leningradskiy,32.25,69.3833,178.4167,92,98,8.86,RU,1655119880
81,koindu,78.76,8.4386,-10.3253,82,97,2.89,GN,1655120320
82,olafsvik,49.41,64.8945,-23.7142,95,100,15.05,IS,1655120321
83,amla,89.02,21.9333,78.1167,41,70,8.68,IN,1655120323
84,nizhniy odes,67.87,63.6445,54.856,19,6,5.37,RU,1655120324
85,qazvin,94.62,36.2797,50.0049,16,40,9.22,IR,1655120324
86,harbour breton,54.14,47.4833,-55.7983,81,76,7.65,CA,1655120325
87,arlit,110.93,18.7369,7.3853,6,2,8.68,NE,1655120244
88,yerbogachen,66.42,61.2767,108.0108,48,98,3.56,RU,1655120326
89,nome,42.87,64.5011,-165.4064,76,100,0.0,US,1655120327
90,novikovo,77.65,51.1537,37.8879,56,32,5.35,RU,1655120328
91,jabinyanah,84.0,35.035,10.9081,38,0,18.79,TN,1655120329
92,dudinka,68.22,69.4058,86.1778,41,100,14.5,RU,1655120329
93,columbus,72.81,39.9612,-82.9988,98,40,4.61,US,1655120270
94,hami,100.51,42.8,93.45,3,0,5.68,CN,1655120331
95,hamilton,75.67,39.1834,-84.5333,95,20,4.61,US,1655120130
96,kinsale,62.24,51.7075,-8.5306,58,75,6.91,IE,1655120332
97,jalu,90.77,29.0331,21.5482,25,0,14.74,LY,1655120333
98,yaan,88.9,7.3833,8.5667,54,76,5.79,NG,1655120333
99,naze,76.12,28.3667,129.4833,86,99,19.42,JP,1655120334
100,nalut,89.62,30.3333,10.85,12,0,13.98,LY,1655120335
101,muravlenko,68.5,63.7898,74.523,56,100,5.57,RU,1655120336
102,nanortalik,37.08,60.1432,-45.2371,75,37,24.09,GL,1655119982
103,victoria,85.96,22.2855,114.1577,85,95,15.01,HK,1655120051
104,diplo,95.59,24.4667,69.584,44,17,18.07,PK,1655120338
105,tarakan,81.9,3.3,117.6333,78,20,3.44,ID,1655120339
106,arantangi,93.88,10.1667,78.9833,42,97,10.6,IN,1655120340
107,beringovskiy,41.41,63.05,179.3167,82,94,8.63,RU,1655120341
108,katsuura,64.9,35.1333,140.3,71,100,13.56,JP,1655119881
109,sitka,48.09,57.0531,-135.33,87,100,3.44,US,1655119980
110,tuktoyaktuk,32.54,69.4541,-133.0374,88,100,6.42,CA,1655119886
111,harper,81.54,4.375,-7.7169,63,92,8.88,LR,1655120344
112,sangmelima,78.69,2.9333,11.9833,75,91,2.35,CM,1655120345
113,bhandara,100.8,21.1667,79.65,29,64,12.06,IN,1655120346
114,syracuse,87.39,37.0881,15.2792,57,0,7.7,IT,1655120329
115,vostok,56.93,46.4856,135.8833,66,23,4.45,RU,1655120347
116,puerto cabezas,75.56,14.0351,-83.3888,92,100,6.46,NI,1655120348
117,pevek,33.06,69.7008,170.3133,78,60,1.25,RU,1655120348
118,bonthe,81.43,7.5264,-12.505,75,96,5.79,SL,1655120349
119,hurghada,95.04,27.2574,33.8129,21,0,23.02,EG,1655120319
120,ferrol,82.24,43.4832,-8.2369,75,41,17.83,ES,1655120350
121,marsa matruh,79.0,31.3525,27.2453,69,40,16.11,EG,1655120351
122,danilovka,77.38,50.3557,44.1168,40,17,4.74,RU,1655120352
123,kapoeta,94.19,4.7717,33.5903,26,23,16.02,SS,1655120353
124,vestmannaeyjar,49.19,63.4427,-20.2734,100,100,11.5,IS,1655120354
125,faya,91.92,18.3851,42.4509,16,31,7.07,SA,1655120355
126,anadyr,48.7,64.75,177.4833,53,0,11.18,RU,1655120356
127,yar-sale,53.26,66.8333,70.8333,61,97,21.03,RU,1655120357
128,klaksvik,50.92,62.2266,-6.589,96,100,13.29,FO,1655120357
129,bobrovka,55.13,54.047,61.7455,84,88,13.56,RU,1655120358
130,astana,73.35,51.1801,71.446,43,75,22.37,KZ,1655120354
131,dawson creek,40.64,55.7666,-120.2362,81,100,5.75,CA,1655120359
132,norman wells,41.04,65.282,-126.8329,93,100,10.36,CA,1655119878
133,shalakusha,66.83,62.2247,40.2539,59,100,6.8,RU,1655120361
134,navahrudak,65.77,53.6,25.8333,68,82,2.24,BY,1655120361
135,sur,91.62,22.5667,59.5289,56,0,18.84,OM,1655120362
136,guerrero negro,62.1,27.9769,-114.0611,89,69,9.44,MX,1655120363
137,roura,81.97,4.7263,-52.3274,88,20,4.61,GF,1655120363
138,qaqortoq,40.51,60.7167,-46.0333,65,22,4.83,GL,1655120364
139,krasnoselkup,73.85,65.7,82.4667,46,95,6.29,RU,1655120365
140,grand-lahou,83.12,5.1367,-5.0242,59,99,6.38,CI,1655120366
141,bilma,109.18,18.6853,12.9164,8,68,14.32,NE,1655120366
142,el real de santa maria,73.36,8.109,-77.7325,98,100,1.16,PA,1655120367
143,sioux lookout,57.27,50.1001,-91.917,58,100,5.75,CA,1655120368
144,marsh harbour,81.01,26.5412,-77.0636,80,6,11.18,BS,1655120130
145,aasiaat,31.33,68.7098,-52.8699,88,100,2.46,GL,1655120370
146,teya,62.1,60.3778,92.6267,91,78,4.12,RU,1655120371
147,strezhevoy,68.36,60.7333,77.5889,58,83,10.2,RU,1655120372
148,powell river,53.01,49.8496,-124.5361,86,21,8.9,CA,1655120373
149,hasaki,64.8,35.7333,140.8333,65,97,9.6,JP,1655120374
150,shibetsu,47.61,43.659,145.132,92,91,3.71,JP,1655120374
151,agadez,106.45,19.75,10.25,9,0,13.24,NE,1655120375
152,manama,100.58,26.2154,50.5832,41,0,8.05,BH,1655120376
153,yuanping,63.97,38.7153,112.7575,60,66,4.36,CN,1655120376
154,tucuma,78.98,-0.1833,-50.05,85,10,3.33,BR,1655120377
155,tilichiki,43.66,60.4667,166.1,77,99,1.12,RU,1655120378
156,sorland,49.86,67.667,12.6934,94,95,23.82,NO,1655120379
157,buraydah,109.85,26.326,43.975,6,0,5.26,SA,1655120379
158,amot,56.79,59.5714,7.9877,55,53,10.67,NO,1655120380
159,springdale,80.73,36.1867,-94.1288,81,0,11.5,US,1655120162
160,solnechnyy,60.24,50.7214,136.6319,76,62,5.41,RU,1655120381
161,grindavik,53.55,63.8424,-22.4338,100,100,19.57,IS,1655119975
162,cayenne,80.1,4.9333,-52.3333,1,100,2.3,GF,1655119805
163,kahului,75.85,20.8947,-156.47,85,0,20.71,US,1655120383
164,chlum u trebone,73.53,48.9623,14.928,71,59,12.93,CZ,1655120384
165,sao filipe,73.94,14.8961,-24.4956,76,19,6.76,CV,1655120385
166,yulin,76.69,22.6333,110.15,97,100,3.24,CN,1655120191
167,palazzolo acreide,80.2,37.0623,14.9035,25,2,9.91,IT,1655120386
168,stupino,71.11,54.9008,38.0708,72,76,8.37,RU,1655120387
169,teluk intan,86.02,4.0259,101.0213,85,94,3.18,MY,1655120387
170,opelousas,78.69,30.5335,-92.0815,100,0,4.61,US,1655120388
171,zabol,88.95,32.25,67.25,7,0,23.2,AF,1655120390
172,sistranda,51.76,63.7256,8.834,92,99,23.94,NO,1655120391
173,kavaratti,82.74,10.5669,72.642,73,95,18.81,IN,1655120391
174,birjand,99.07,32.8663,59.2211,6,40,11.5,IR,1655120392
175,nadym,59.99,65.5333,72.5167,61,80,24.87,RU,1655120393
176,zhigansk,54.55,66.7697,123.3711,74,42,9.22,RU,1655120395
177,pangody,68.25,65.85,74.4859,59,86,18.77,RU,1655120395
178,harlingen,80.94,26.1906,-97.6961,92,100,12.66,US,1655120372
179,whitehorse,43.57,60.7161,-135.0538,94,100,2.3,CA,1655119889
180,tabou,80.96,4.423,-7.3528,64,94,7.65,CI,1655120397
181,kindersley,51.82,51.4668,-109.1682,93,75,11.5,CA,1655120108
182,westlock,50.11,54.1502,-113.8688,71,80,5.97,CA,1655120399
183,ponta do sol,74.71,32.6667,-17.1,68,50,5.03,PT,1655120400
184,valdez,74.37,1.2492,-78.9831,90,100,4.16,EC,1655120401
185,san quintin,62.47,30.4833,-115.95,88,93,10.65,MX,1655120402
186,kuytun,75.34,54.3419,101.5036,55,99,2.8,RU,1655120402
187,bathsheba,83.01,13.2167,-59.5167,74,40,20.71,BB,1655120403
188,xining,65.86,36.6167,101.7667,33,0,4.61,CN,1655120404
189,black river,81.18,18.0264,-77.8487,69,100,10.38,JM,1655120405
190,tecoanapa,77.63,16.5167,-98.75,85,100,4.65,MX,1655120405
191,marshall,78.39,34.3834,-86.3333,92,0,0.0,US,1655120262
192,hay river,49.98,60.8156,-115.7999,81,40,2.3,CA,1655120407
193,tall kayf,87.19,37.0833,41.0667,27,40,13.8,TR,1655120408
194,millau,80.73,44.0833,2.9167,41,51,8.84,FR,1655120409
195,sovetskiy,55.71,61.3614,63.5842,59,100,10.2,RU,1655120410
196,balykshi,82.4,47.0667,51.8667,17,0,8.95,KZ,1655120410
197,abha,91.65,18.2164,42.5053,6,20,9.22,SA,1655119844
198,anchorage,53.64,61.2181,-149.9003,79,20,6.91,US,1655120307
199,hobyo,85.66,5.3505,48.5268,60,57,29.12,SO,1655119890
200,mindelo,76.55,16.8901,-24.9804,65,40,24.16,CV,1655120413
201,morag,58.32,53.9171,19.926,91,97,8.14,PL,1655120414
202,qui nhon,82.17,13.7667,109.2333,84,100,14.54,VN,1655120415
203,tayoltita,66.22,24.0833,-105.9333,94,36,1.86,MX,1655120416
204,aldama,75.36,22.9167,-98.0667,90,99,2.86,MX,1655120416
205,abashiri,48.49,44.0213,144.2697,100,75,3.44,JP,1655120417
206,lanivtsi,76.26,49.8633,26.0908,49,9,3.65,UA,1655120418
207,lethem,75.31,3.3803,-59.7968,88,92,2.33,GY,1655120419
208,brigantine,72.14,39.4101,-74.3646,96,20,0.0,US,1655120419
209,rancho palos verdes,66.42,33.7445,-118.387,93,88,5.01,US,1655120420
210,boksitogorsk,61.34,59.474,33.8485,82,100,6.62,RU,1655120421
211,cabo san lucas,83.5,22.8909,-109.9124,71,42,12.46,MX,1655120300
212,kilembe,76.03,0.2,30.0,50,48,6.04,UG,1655120423
213,taoudenni,104.94,22.6783,-3.9836,17,63,6.51,ML,1655120423
214,rabo de peixe,66.27,37.8,-25.5833,99,40,11.5,PT,1655120424
215,ikom,91.87,5.9667,8.7063,50,83,2.84,NG,1655120425
216,mehamn,46.31,71.0357,27.8492,87,75,19.57,NO,1655120426
217,yenagoa,86.31,4.9247,6.2642,64,98,6.31,NG,1655120426
218,mangrol,86.61,21.1167,70.1167,67,33,8.93,IN,1655120427
219,kahone,86.02,14.15,-16.0333,62,0,9.22,SN,1655120428
220,port-cartier,58.75,50.0334,-66.8654,79,100,13.62,CA,1655120264
221,dzhebariki-khaya,56.01,62.2167,135.8,77,100,4.07,RU,1655120429
222,pointe michel,77.29,15.25,-61.3833,70,4,12.97,DM,1655120430
223,meadow lake,73.13,34.8014,-106.5436,29,7,2.75,US,1655120431
224,bethalto,82.06,38.9092,-90.0407,95,0,5.75,US,1655120432
225,port blair,84.24,11.6667,92.75,79,40,9.22,IN,1655119977
226,svetlogorsk,73.6,52.6333,29.7333,43,33,6.69,BY,1655120433
227,aklavik,37.62,68.2191,-135.0107,90,100,4.81,CA,1655120434
228,sri aman,80.65,1.2376,111.4621,94,100,0.0,MY,1655120434
229,ponta delgada,67.5,37.7333,-25.6667,82,40,11.5,PT,1655120435
230,arman,44.02,59.7,150.1667,86,99,4.92,RU,1655120436
231,tura,79.66,25.5198,90.2201,94,100,3.29,IN,1655120438
232,marawi,69.67,7.9986,124.2928,93,100,2.17,PH,1655120438
233,mathbaria,87.3,22.2876,89.9593,73,64,14.9,BD,1655120439
234,ilulissat,32.02,69.2167,-51.1,93,75,6.91,GL,1655120440
235,huilong,71.92,31.8111,121.655,92,100,6.64,CN,1655120441
236,almaznyy,81.19,48.0448,40.045,39,0,11.39,RU,1655120441
237,sharjah,104.29,25.3573,55.4033,33,0,18.41,AE,1655120210
238,tommot,60.8,58.9564,126.2925,59,52,2.68,RU,1655120442
239,ximei,75.97,24.9639,118.3794,96,100,1.34,CN,1655120443
240,vernon,56.75,50.2581,-119.2691,80,100,1.14,CA,1655120365
241,lagoa,62.53,39.05,-27.9833,81,9,14.94,PT,1655120445
242,grand bank,51.98,47.0999,-55.765,78,79,8.14,CA,1655120446
243,sturgis,67.48,41.7992,-85.4192,92,0,6.91,US,1655120447
244,leverkusen,69.69,51.0333,7.0,53,70,11.86,DE,1655120447
245,berdigestyakh,54.05,62.0989,126.6992,76,45,2.57,RU,1655120448
246,tessalit,103.41,20.1986,1.0114,13,29,5.28,ML,1655120449
247,tomatlan,78.44,19.9333,-105.25,79,85,1.39,MX,1655120451
248,peterhead,61.45,57.5058,-1.7981,76,85,5.79,GB,1655120452
249,celestun,76.5,20.8667,-90.4,88,74,10.33,MX,1655120452
250,rikitea,72.91,-23.1203,-134.9692,65,22,8.68,PF,1655120453
251,saint-philippe,76.59,-21.3585,55.7679,79,95,15.17,RE,1655120454
252,lebu,46.2,-37.6167,-73.65,87,70,9.73,CL,1655120455
253,ushuaia,37.06,-54.8,-68.3,100,40,4.61,AR,1655120456
254,mataura,43.48,-46.1927,168.8643,88,90,10.69,NZ,1655120456
255,beira,77.09,-19.8436,34.8389,69,20,6.91,MZ,1655120457
256,kununurra,60.78,-15.7667,128.7333,51,15,0.0,AU,1655120458
257,bluff,43.81,-46.6,168.3333,80,93,34.76,NZ,1655120459
258,gamba,82.17,-2.65,10.0,63,40,10.71,GA,1655120460
259,busselton,59.11,-33.65,115.3333,76,78,8.57,AU,1655120461
260,aguai,43.9,-22.0594,-46.9786,48,100,3.22,BR,1655120462
261,maldonado,34.99,-34.6667,-54.9167,72,10,3.44,UY,1655120463
262,arraial do cabo,66.06,-22.9661,-42.0278,68,20,18.41,BR,1655120463
263,ramotswa,69.42,-24.8716,25.8699,26,0,7.25,BW,1655120464
264,hermanus,57.79,-34.4187,19.2345,88,100,13.18,ZA,1655120465
265,cape town,58.26,-33.9258,18.4232,92,100,17.27,ZA,1655120301
266,hithadhoo,84.0,-0.6,73.0833,69,34,4.56,MV,1655120466
267,port elizabeth,73.31,-33.918,25.5701,67,0,3.44,ZA,1655120467
268,carnarvon,68.43,-24.8667,113.6333,56,0,13.67,AU,1655120468
269,punta arenas,42.91,-53.15,-70.9167,93,40,11.5,CL,1655120468
270,murray bridge,51.12,-35.1167,139.2667,73,84,7.81,AU,1655120469
271,mahebourg,77.29,-20.4081,57.7,65,40,14.97,MU,1655120470
272,olinda,80.33,-8.0089,-34.8553,83,20,1.14,BR,1655119737
273,port alfred,82.18,-33.5906,26.891,28,100,7.0,ZA,1655120471
274,padang,80.65,-0.9492,100.3543,86,93,1.97,ID,1655120472
275,vaini,77.16,-21.2,-175.2,94,40,4.61,TO,1655120474
276,wanganui,55.6,-39.9333,175.05,75,78,11.99,NZ,1655120475
277,chuy,48.27,-33.6971,-53.4616,87,14,3.09,UY,1655120475
278,alofi,71.49,-19.0595,-169.9187,94,75,2.3,NU,1655120476
279,yulara,58.68,-25.2406,130.9889,35,0,3.02,AU,1655120477
280,souillac,77.38,-20.5167,57.5167,65,40,14.97,MU,1655120000
281,coquimbo,47.93,-29.9533,-71.3436,93,100,8.05,CL,1655120479
282,alyangula,69.89,-13.8483,136.4192,78,61,10.25,AU,1655120479
283,sechura,63.09,-5.5569,-80.8222,82,90,8.23,PE,1655120480
284,kaitangata,43.16,-46.2817,169.8464,76,77,18.16,NZ,1655120481
285,antofagasta,54.68,-23.65,-70.4,71,38,3.94,CL,1655120352
286,richards bay,78.28,-28.783,32.0377,32,2,6.93,ZA,1655120483
287,puerto madryn,55.11,-42.7692,-65.0385,26,100,13.0,AR,1655120483
288,avarua,75.25,-21.2078,-159.775,73,75,5.75,CK,1655120356
289,bambous virieux,77.25,-20.3428,57.7575,65,40,14.97,MU,1655120485
290,new norfolk,45.9,-42.7826,147.0587,85,22,3.36,AU,1655120485
291,tuatapere,43.5,-46.1333,167.6833,88,95,14.0,NZ,1655120486
292,soyo,81.05,-6.1349,12.3689,63,63,10.27,AO,1655120487
293,east london,81.54,-33.0153,27.9116,28,0,12.66,ZA,1655120488
294,phalombe,71.28,-15.8064,35.6507,55,31,5.57,MW,1655120489
295,tsumeb,74.41,-19.2333,17.7167,24,0,7.67,NA,1655120491
296,mitsamiouli,79.7,-11.3847,43.2844,68,13,6.31,KM,1655120491
297,mount gambier,46.47,-37.8333,140.7667,79,98,5.08,AU,1655120492
298,bredasdorp,64.47,-34.5322,20.0403,60,100,7.0,ZA,1655120494
299,hobart,46.26,-42.8794,147.3294,85,20,8.05,AU,1655120497
300,mount isa,55.17,-20.7333,139.5,38,6,6.91,AU,1655120498
301,bengkulu,79.56,-3.8004,102.2655,78,100,3.04,ID,1655120200
302,treinta y tres,45.39,-33.2333,-54.3833,70,6,2.06,UY,1655120501
303,luderitz,64.47,-26.6481,15.1594,65,98,18.1,NA,1655120503
304,vila velha,67.95,-20.3297,-40.2925,75,100,12.66,BR,1655120504
305,faanui,79.32,-16.4833,-151.75,66,57,19.64,PF,1655120504
306,kundiawa,60.3,-6.0167,144.9667,98,54,2.91,PG,1655120505
307,cidreira,51.66,-30.1811,-50.2056,77,89,13.69,BR,1655120506
308,atuona,77.02,-9.8,-139.0333,73,82,16.49,PF,1655120266
309,narrabri,44.64,-30.3167,149.7833,76,0,1.97,AU,1655120508
310,te anau,40.93,-45.4167,167.7167,94,92,7.56,NZ,1655120508
311,martapura,78.89,-3.4167,114.85,89,40,5.75,ID,1655120509
312,mackay,48.69,-21.15,149.2,62,0,7.54,AU,1655120510
313,itaituba,77.16,-4.2761,-55.9836,94,75,0.0,BR,1655120511
314,waingapu,76.5,-9.6567,120.2641,78,69,9.95,ID,1655120512
315,coihaique,34.41,-45.5752,-72.0662,93,75,2.3,CL,1655120514
316,mahanoro,71.69,-19.9,48.8,75,95,9.19,MG,1655120516
317,wanaka,28.94,-44.7,169.15,82,25,7.0,NZ,1655120516
318,port hedland,69.85,-20.3167,118.5667,78,0,3.44,AU,1655120517
319,machala,70.84,-3.2667,-79.9667,87,98,3.78,EC,1655120518
320,geraldton,63.01,-28.7667,114.6,72,100,0.0,AU,1655120519
321,subtanjalla,58.03,-14.0189,-75.7581,79,83,2.59,PE,1655120520
322,bowen,59.4,-20.0167,148.2333,69,1,7.96,AU,1655120521
323,jutai,69.01,-5.1833,-68.9,80,100,2.75,BR,1655120523
324,noumea,75.0,-22.2763,166.4572,99,100,8.77,NC,1655120524
325,trinidad,51.78,-14.8333,-64.9,93,0,4.61,BO,1655120525
326,castro,44.94,-24.7911,-50.0119,67,0,3.06,BR,1655120525
327,manhuacu,65.12,-20.2581,-42.0336,76,74,3.31,BR,1655120526
328,isangel,75.69,-19.55,169.2667,90,80,5.39,VU,1655120527
329,chipinge,64.63,-20.1883,32.6236,56,45,2.28,ZW,1655120528
330,poum,74.82,-20.2333,164.0167,86,100,12.08,NC,1655120529
331,santarem,73.53,-2.4431,-54.7083,100,75,2.3,BR,1655120530
332,maceio,76.44,-9.6658,-35.7353,88,20,3.44,BR,1655120530
333,ambilobe,87.76,-13.2,49.05,40,15,0.63,MG,1655120532
334,mar del plata,44.1,-38.0023,-57.5575,75,0,5.75,AR,1655120533
335,karratha,75.0,-20.7377,116.8463,65,0,6.38,AU,1655120534
336,huarmey,62.44,-10.0681,-78.1522,84,63,3.87,PE,1655120536
337,beloha,79.81,-25.1667,45.05,23,0,7.92,MG,1655120537
338,rusape,70.66,-18.5278,32.1284,34,1,2.59,ZW,1655120538
339,vao,71.53,-22.6667,167.4833,72,100,10.92,NC,1655120539
340,san carlos de bariloche,36.25,-41.1456,-71.3082,93,75,0.0,AR,1655120427
341,moindou,71.89,-21.6924,165.677,83,100,8.77,NC,1655120540
342,sao francisco,77.18,-15.9486,-44.8644,45,90,4.9,BR,1655120542
343,puerto narino,69.04,-3.7703,-70.3831,85,100,2.86,CO,1655120544
344,ahipara,56.59,-35.1667,173.1667,69,55,20.76,NZ,1655120547
345,sorong,79.93,-0.8833,131.25,80,58,4.56,ID,1655120548
346,uaua,77.07,-9.8414,-39.4817,63,63,7.63,BR,1655120549
347,kruisfontein,76.75,-34.0033,24.7314,25,100,14.58,ZA,1655120550
348,aripuana,72.05,-9.1667,-60.6333,71,69,5.14,BR,1655120550
349,port-gentil,85.96,-0.7193,8.7815,70,75,11.5,GA,1655120552
350,namibe,77.92,-15.1961,12.1522,47,0,13.09,AO,1655120552
351,sola,80.22,-13.8833,167.55,81,23,13.89,VU,1655120553
352,karuzi,73.6,-3.125,30.1333,54,88,5.59,BI,1655120555
353,valparaiso,52.48,-33.0393,-71.6273,81,100,0.0,CL,1655120356
354,yeppoon,51.58,-23.1333,150.7333,63,0,4.79,AU,1655120556
355,poya,71.83,-21.35,165.15,88,100,6.6,NC,1655120557
356,mossendjo,84.99,-2.9506,12.7261,48,88,4.5,CG,1655120558
357,angoche,77.76,-16.2325,39.9086,64,49,10.87,MZ,1655120558
358,mildura,50.07,-34.2,142.15,79,67,4.88,AU,1655120559
359,huambo,75.24,-12.7761,15.7392,22,9,5.57,AO,1655120560
360,alta floresta,70.48,-9.8756,-56.0861,66,91,5.95,BR,1655120003
361,caravelas,74.01,-17.7125,-39.2481,88,97,9.19,BR,1655120562
362,angol,40.32,-37.8,-72.7167,83,82,1.79,CL,1655120564
363,luangwa,80.65,-15.6167,30.4167,33,4,5.88,ZM,1655120565
364,pisco,59.05,-13.7,-76.2167,82,100,5.75,PE,1655119998
365,tshikapa,96.53,-6.4167,20.8,20,22,4.54,CD,1655120566
366,kirakira,79.32,-10.4544,161.9205,85,72,7.81,SB,1655120568
367,chicama,57.74,-7.8447,-79.1469,87,83,3.02,PE,1655120568
368,samarai,82.24,-10.6167,150.6667,77,59,11.65,PG,1655120569
369,mapiri,56.62,-15.25,-68.1667,84,10,0.89,BO,1655120570
370,manaia,54.57,-39.55,174.1333,79,78,22.82,NZ,1655120571
371,esperance,60.28,-33.8667,121.9,84,98,29.28,AU,1655120571
372,saldanha,59.05,-33.0117,17.9442,91,100,21.27,ZA,1655120572
373,kendari,75.02,-3.945,122.4989,93,100,2.46,ID,1655120573
374,flinders,50.18,-34.5833,150.8552,80,3,1.01,AU,1655120575
375,morro da fumaca,55.96,-28.6508,-49.21,73,35,2.53,BR,1655120576
376,barreiras,83.91,-12.1528,-44.99,39,73,0.63,BR,1655120577
377,katobu,74.32,-4.9408,122.5276,94,97,1.59,ID,1655120578
378,rocha,47.61,-34.4833,-54.3333,81,22,2.95,UY,1655120579
379,victoria point,60.91,-27.5833,153.3,88,64,5.28,AU,1655120580
380,belmonte,77.23,-15.8631,-38.8828,70,15,3.56,BR,1655120582
381,general roca,45.7,-39.0333,-67.5833,55,100,3.09,AR,1655120583
382,touros,81.95,-5.1989,-35.4608,69,8,11.34,BR,1655120583
383,oranjemund,63.16,-28.55,16.4333,65,100,18.39,NA,1655120585
384,amboasary,78.73,-25.0333,46.3833,37,0,4.9,MG,1655120586
385,namatanai,79.34,-3.6667,152.4333,79,88,8.61,PG,1655120587
386,katherine,64.72,-14.4667,132.2667,36,71,5.75,AU,1655120588
387,neuquen,30.09,-38.9516,-68.0591,93,0,4.61,AR,1655120589
388,plettenberg bay,73.22,-34.0527,23.3716,35,100,5.86,ZA,1655120590
389,sao jose da coroa grande,78.67,-8.8978,-35.1478,78,9,1.92,BR,1655120591
390,port macquarie,47.89,-31.4333,152.9167,89,30,5.75,AU,1655119999
391,tautira,78.19,-17.7333,-149.15,69,78,20.13,PF,1655120593
392,sao joao da barra,66.29,-21.6403,-41.0511,55,100,20.45,BR,1655120002
393,nabire,76.55,-3.3667,135.4833,91,100,2.44,ID,1655120595
394,port lincoln,57.63,-34.7333,135.8667,58,92,14.79,AU,1655120596
395,dubbo,44.73,-32.25,148.6167,76,75,8.05,AU,1655120597
396,grand gaube,77.4,-20.0064,57.6608,65,28,11.99,MU,1655120598
397,la mana,71.64,-0.9333,-79.2167,96,98,0.43,EC,1655120598
398,santa maria da vitoria,82.89,-13.3947,-44.1886,36,73,2.1,BR,1655120600
399,morros,80.55,-9.4467,-46.3003,59,36,2.73,BR,1655120601
400,labuhan,80.67,-6.8844,112.2051,83,100,6.69,ID,1655120604
401,toamasina,75.2,-18.1667,49.3833,78,75,13.8,MG,1655120604
402,fuerte olimpo,52.54,-21.0415,-57.8738,47,0,1.7,PY,1655120607
403,bethanien,71.11,-26.502,17.1583,19,100,22.35,NA,1655120608
404,hervey bay,63.0,-25.2986,152.8535,79,5,6.64,AU,1655120610
405,nortelandia,60.78,-14.4547,-56.8028,56,97,3.74,BR,1655120611
406,mineiros,55.62,-17.5694,-52.5511,37,90,6.62,BR,1655120611
407,boueni,82.38,-12.9025,45.0761,69,6,10.25,YT,1655120612
408,ponto novo,77.23,-10.8628,-40.1336,67,74,4.29,BR,1655120613
409,waipawa,44.82,-41.4122,175.5153,75,32,9.15,NZ,1655120614
410,cacequi,45.23,-29.8836,-54.825,72,0,2.75,BR,1655120614
411,ambon,81.23,-3.6954,128.1814,13,40,1.14,ID,1655120616
412,camana,60.53,-16.6228,-72.7111,85,71,5.61,PE,1655120616
413,maragogi,78.58,-9.0122,-35.2225,79,8,2.15,BR,1655120617
414,auki,76.5,-8.7676,160.7034,89,91,4.47,SB,1655120618
415,presidencia roque saenz pena,44.65,-26.7852,-60.4388,62,0,5.91,AR,1655120364
416,ancud,50.23,-41.8697,-73.8203,93,100,10.0,CL,1655120620
417,saint-joseph,75.58,-21.3667,55.6167,77,86,15.61,RE,1655120620
418,comodoro rivadavia,55.26,-45.8667,-67.5,44,0,8.05,AR,1655120608
419,sawtell,48.18,-30.3833,153.1,93,40,3.44,AU,1655120623
420,kandrian,77.72,-6.2167,149.55,89,57,5.3,PG,1655120624
421,neiafu,79.81,-18.65,-173.9833,75,6,15.12,TO,1655120626
422,innisfail,60.33,-17.5333,146.0333,78,54,4.14,AU,1655120626
423,mwinilunga,80.87,-11.7358,24.4293,26,29,3.42,ZM,1655120627
424,moroni,79.79,-11.7022,43.2551,70,21,3.76,KM,1655120628
425,joao pinheiro,68.23,-17.7425,-46.1725,35,86,5.14,BR,1655120629
426,japura,76.1,-0.3167,102.35,96,96,2.35,ID,1655120629
427,cerro largo,45.16,-28.1486,-54.7381,75,0,4.36,BR,1655120630
428,luwuk,77.7,-0.9516,122.7875,87,71,4.18,ID,1655120632
429,taltal,56.52,-25.4,-70.4833,73,24,5.35,CL,1655120632
430,luganville,78.84,-15.5333,167.1667,81,66,3.15,VU,1655120633
431,taree,41.05,-31.9,152.4667,94,3,3.8,AU,1655120636
432,urucara,74.35,-2.5364,-57.76,96,99,2.37,BR,1655120638
433,cap malheureux,76.46,-19.9842,57.6142,65,32,11.99,MU,1655120639
434,alice springs,51.35,-23.7,133.8833,40,67,5.75,AU,1655120641
435,chachapoyas,50.05,-6.2317,-77.869,97,100,2.93,PE,1655120642
436,viedma,49.51,-40.8135,-62.9967,56,100,12.3,AR,1655120643
437,diego de almagro,53.24,-26.3667,-70.05,25,1,0.65,CL,1655120644
438,el triunfo,71.64,-1.9333,-79.9667,88,100,2.91,EC,1655120646
439,hualmay,61.18,-11.0964,-77.6139,84,68,4.59,PE,1655120647
440,campina grande do sul,51.53,-25.3056,-49.0553,54,0,0.56,BR,1655120648
441,kerema,79.25,-7.9631,145.7785,89,99,7.14,PG,1655120651
442,malacacheta,70.07,-17.8422,-42.0767,74,96,3.09,BR,1655120652
443,contamana,61.56,-7.3333,-75.0167,81,20,1.77,PE,1655120653
444,uyuni,30.61,-20.4597,-66.825,16,0,1.43,BO,1655120653
445,videira,42.96,-27.0083,-51.1517,75,0,0.94,BR,1655120654
446,lorengau,82.13,-2.0226,147.2712,75,87,11.63,PG,1655120450
447,kaeo,53.33,-35.1,173.7833,87,48,15.26,NZ,1655120657
448,gaspar,53.04,-26.9314,-48.9589,92,0,3.11,BR,1655120659
449,opuwo,79.07,-18.0607,13.84,22,0,8.32,NA,1655120660
450,benguela,81.97,-12.5763,13.4055,45,1,8.75,AO,1655120661
451,matamba,63.59,-8.9833,33.9667,58,57,1.79,TZ,1655120661
452,kilindoni,78.87,-7.9139,39.6668,70,53,13.98,TZ,1655120662
453,olavarria,42.57,-36.8927,-60.3225,66,80,7.58,AR,1655120663
454,launceston,38.16,-41.45,147.1667,88,8,0.0,AU,1655120664
455,colac,48.16,-38.3333,143.5833,80,98,2.19,AU,1655120664
456,nsanje,80.83,-16.92,35.262,46,7,4.94,MW,1655120666
457,christchurch,42.91,-43.5333,172.6333,75,24,9.22,NZ,1655120422
458,mocuba,74.01,-16.8392,36.9856,70,42,4.03,MZ,1655120668
459,galesong,78.82,-5.3166,119.3661,80,99,6.11,ID,1655120668
460,nchelenge,76.62,-9.3451,28.734,43,11,8.19,ZM,1655120669
461,turiacu,81.28,-1.6633,-45.3717,73,7,3.53,BR,1655120670
462,tual,81.37,-5.6667,132.75,77,100,17.69,ID,1655120672
463,mouila,82.31,-1.8685,11.0559,74,75,1.74,GA,1655120673
464,cambara,51.08,-23.0464,-50.0736,59,87,4.21,BR,1655120675
465,san rafael,45.19,-34.6177,-68.3301,50,84,5.23,AR,1655120437
466,calbuco,47.41,-41.768,-73.1273,86,100,16.06,CL,1655120677
467,carauari,69.01,-4.8828,-66.8958,85,97,3.0,BR,1655120679
468,moranbah,52.79,-22.0016,148.0466,56,0,8.79,AU,1655120680
469,ulladulla,46.71,-35.35,150.4667,81,1,5.44,AU,1655120680
470,tadine,73.2,-21.55,167.8833,89,100,13.42,NC,1655120682
471,conceicao da barra,72.72,-18.5933,-39.7322,73,98,10.6,BR,1655120683
472,livramento,74.08,-3.0254,-60.1803,94,75,6.91,BR,1655120684
473,nhulunbuy,77.61,-12.2333,136.7667,69,57,11.5,AU,1655120685
474,uberlandia,54.61,-18.9186,-48.2772,58,0,10.36,BR,1655120687
475,mbekenyera,87.35,-10.0,38.9833,29,16,4.12,TZ,1655120687
476,vallenar,52.23,-28.5708,-70.7581,57,30,2.01,CL,1655120690
477,ovalle,52.86,-30.5983,-71.2003,73,75,3.49,CL,1655120693
478,guarapari,66.88,-20.6667,-40.4975,64,100,14.72,BR,1655120695
479,san borja,57.27,-14.8167,-66.85,83,0,2.68,BO,1655120696
480,urucui,82.62,-7.2294,-44.5561,63,5,4.41,BR,1655120697
481,omboue,82.31,-1.5746,9.2618,67,93,11.12,GA,1655120698
482,pangai,78.82,-19.8,-174.35,80,46,13.29,TO,1655120699
483,quiruvilca,33.66,-7.9667,-78.2,83,83,4.74,PE,1655120700
484,kawalu,73.18,-7.3817,108.2082,96,100,1.1,ID,1655120701
485,roebourne,75.02,-20.7833,117.1333,63,0,6.06,AU,1655120704
486,trelew,51.12,-43.249,-65.3051,23,100,9.89,AR,1655120705
487,moerai,75.69,-22.4333,-151.3333,76,93,18.07,PF,1655120706
488,ulundi,80.26,-28.3352,31.4162,13,1,8.72,ZA,1655120707
489,kaniama,90.03,-7.5667,24.1833,24,29,3.69,CD,1655120708
490,nelson bay,48.99,-32.7167,152.15,93,0,4.81,AU,1655120708
491,atambua,71.67,-9.1061,124.8925,82,16,5.75,ID,1655120709
492,san lorenzo,41.94,-25.3333,-57.5333,100,0,0.0,PY,1655120710
493,aitape,79.38,-3.1374,142.3475,82,17,8.23,PG,1655120711
494,kamina,85.95,-8.7386,24.9906,24,9,4.38,CD,1655120712
495,jaicos,83.89,-7.3592,-41.1378,52,3,4.23,BR,1655120714
496,tete,82.49,-16.1564,33.5867,44,40,6.91,MZ,1655120715
497,iquitos,69.84,-3.7481,-73.2472,94,75,3.44,PE,1655120716
498,coracora,43.68,-15.0333,-73.7833,43,2,3.22,PE,1655120717
499,manggar,81.72,-2.8833,108.2667,74,47,6.29,ID,1655120718
